[
  {
    "name": "Advance Dental Care",
    "address": "100 High St, Hounslow TW3 1NH, United Kingdom",
    "phone": "+44 20 8754 3910",
    "status": "Open ⋅ Closes 5 PM",
    "rating": "4.7",
    "reviews": 1885,
    "website": "http://www.advance-dental-care.co.uk/",
    "latitude": "51.4700159",
    "longitude": "-0.3578072",
    "placeId": "ChIJi-ScKN8MdkgRk_o1uYvI7Po",
    "reviewsUrl": "https://search.google.com/local/reviews?placeid=ChIJi-ScKN8MdkgRk_o1uYvI7Po",
     "isVisible": true,
    "postcode": "TW3 1NH"
  },
  {
    "name": "London City Smiles",
    "address": "19-21 Islington High St, London N1 9LQ, United Kingdom",
    "phone": "+44 20 7837 2300",
    "status": "Open ⋅ Closes 8 PM",
    "rating": "4.7",
    "reviews": 960,
    "website": "https://www.londoncitysmiles.com/",
    "latitude": "51.5326014",
    "longitude": "-0.1064012",
    "placeId": "ChIJHZyKOUMbdkgR4qkddnF2v-0",
    "reviewsUrl": "https://search.google.com/local/reviews?placeid=ChIJHZyKOUMbdkgR4qkddnF2v-0",
     "isVisible": true,
    "postcode": "N1 9LQ"
  },
  {
    "name": "Brecknock Dental",
    "address": "37 Brecknock Rd, London N7 0BT, United Kingdom",
    "phone": "+44 20 7485 1102",
    "status": "Open ⋅ Closes 6 PM",
    "rating": "4.7",
    "reviews": 861,
    "website": "http://www.brecknockdental.co.uk/",
    "latitude": "51.549858",
    "longitude": "-0.130551",
    "placeId": "ChIJCaNzlgUbdkgR1yRs7mnwQuI",
    "reviewsUrl": "https://search.google.com/local/reviews?placeid=ChIJCaNzlgUbdkgR1yRs7mnwQuI",
     "isVisible": true,
    "postcode": "N7 0BT"
  },
  {
    "name": "SE1 Dental Circle",
    "address": "20 Limes Grove, London SE13 6DD, United Kingdom",
    "phone": "+44 20 7205 4902",
    "status": "Open ⋅ Closes 7 PM",
    "rating": "",
    "reviews": 0,
    "website": "http://www.se1-dentist.co.uk/",
    "latitude": "51.4591806",
    "longitude": "-0.010609",
    "placeId": "ChIJJeLurOMDdkgRqgReXzP771s",
    "reviewsUrl": "https://search.google.com/local/reviews?placeid=ChIJJeLurOMDdkgRqgReXzP771s",
     "isVisible": true,
    "postcode": "SE13 6DD"
  },
  {
    "name": "Blue Dental Care Brixton",
    "address": "232 Stockwell Rd, London SW9 9SU, United Kingdom",
    "phone": "+44 20 7274 3085",
    "status": "Open ⋅ Closes 6 PM",
    "rating": "4.7",
    "reviews": 829,
    "website": "http://www.bluedentalcare.co.uk/",
    "latitude": "51.4650476",
    "longitude": "-0.1153924",
    "placeId": "ChIJ5_DvCmcEdkgRaS0-ZcJk1_I",
    "reviewsUrl": "https://search.google.com/local/reviews?placeid=ChIJ5_DvCmcEdkgRaS0-ZcJk1_I",
     "isVisible": true,
    "postcode": "SW9 9SU"
  },
  {
    "name": "Buckingham Gate Orthodontics",
    "address": "Basement, 23 Buckingham Gate, London SW1E 6DY, United Kingdom",
    "phone": "+44 20 7167 9558",
    "status": "Open ⋅ Closes 6 PM",
    "rating": "4.6",
    "reviews": 780,
    "website": "http://bgortho.co.uk/",
    "latitude": "51.4994674",
    "longitude": "-0.1397412",
    "placeId": "ChIJ3Rak3qcFdkgRax2_9x5EEwE",
    "reviewsUrl": "https://search.google.com/local/reviews?placeid=ChIJ3Rak3qcFdkgRax2_9x5EEwE",
     "isVisible": true,
    "postcode": "SW1E 6DY"
  },
  {
    "name": "Trinity Dental",
    "address": "87 Trinity Ave, Enfield EN1 1HT, United Kingdom",
    "phone": "+44 20 8363 2477",
    "status": "Open ⋅ Closes 5 PM",
    "rating": "4.7",
    "reviews": 716,
    "website": "http://www.trinitydental.co.uk/",
    "latitude": "51.6401329",
    "longitude": "-0.0635417",
    "placeId": "ChIJp6Xs-eEedkgRJESprf_uCc8",
    "reviewsUrl": "https://search.google.com/local/reviews?placeid=ChIJp6Xs-eEedkgRJESprf_uCc8",
     "isVisible": true,
    "postcode": "EN1 1HT"
  },
  {
    "name": "Gentle Dental Care",
    "address": "6 Daly Dr, Bromley BR1 2FF, United Kingdom",
    "phone": "+44 20 8295 2534",
    "status": "Temporarily closed",
    "rating": "4.6",
    "reviews": 16,
    "website": "https://www.gentledentalcaregroup.co.uk/dentist-bromley/6-daly-drive/",
    "latitude": "51.3995537",
    "longitude": "0.0612537",
    "placeId": "ChIJFx_41aSr2EcRFik7WliVz4Q",
    "reviewsUrl": "https://search.google.com/local/reviews?placeid=ChIJFx_41aSr2EcRFik7WliVz4Q",
     "isVisible": true,
    "postcode": "BR1 2FF"
  },
  {
    "name": "Pearl Dental Clinic",
    "address": "5 Vale Parade, London SW15 3PS, United Kingdom",
    "phone": "+44 20 8547 9997",
    "status": "Open ⋅ Closes 10 PM",
    "rating": "4.6",
    "reviews": 692,
    "website": "http://www.pearldentalclinic.co.uk/",
    "latitude": "51.4349926",
    "longitude": "-0.2578769",
    "placeId": "ChIJGZd0CcoOdkgRNAE7_SSqglw",
    "reviewsUrl": "https://search.google.com/local/reviews?placeid=ChIJGZd0CcoOdkgRNAE7_SSqglw",
     "isVisible": true,
    "postcode": "SW15 3PS"
  },
  {
    "name": "Simply Teeth",
    "address": "438 Green Ln, Seven Kings, Ilford IG3 9LD, United Kingdom",
    "phone": "+44 20 8590 0575",
    "status": "Open ⋅ Closes 6 PM",
    "rating": "4.8",
    "reviews": 683,
    "website": "http://www.simplyteethessex.co.uk/",
    "latitude": "51.5610083",
    "longitude": "0.1001913",
    "placeId": "ChIJP7UqCyyk2EcR2la6htNieMw",
    "reviewsUrl": "https://search.google.com/local/reviews?placeid=ChIJP7UqCyyk2EcR2la6htNieMw",
     "isVisible": true,
    "postcode": "IG3 9LD"
  },
  {
    "name": "Abbey Dental Barking",
    "address": "2 Arboretum Place, Barking IG11 7RL, United Kingdom",
    "phone": "+44 20 8594 4129",
    "status": "Open ⋅ Closes 6:30 PM",
    "rating": "4.3",
    "reviews": 682,
    "website": "https://www.abbeydentalbarking.co.uk/",
    "latitude": "51.5369586",
    "longitude": "0.0807401",
    "placeId": "ChIJL6u6pmym2EcRf4gIWqEnY8Q",
    "reviewsUrl": "https://search.google.com/local/reviews?placeid=ChIJL6u6pmym2EcRf4gIWqEnY8Q",
     "isVisible": true,
    "postcode": "IG11 7RL"
  },
  {
    "name": "Love Teeth Dental",
    "address": "743 London Rd, Cheam, Worcester Park, Sutton SM3 9DL, United Kingdom",
    "phone": "+44 20 8337 0629",
    "status": "Open ⋅ Closes 7 PM",
    "rating": "4.8",
    "reviews": 660,
    "website": "http://www.loveteethdental.co.uk/",
    "latitude": "51.3777068",
    "longitude": "-0.2212902",
    "placeId": "ChIJI4xsYEUIdkgRZZftgaVBiMY",
    "reviewsUrl": "https://search.google.com/local/reviews?placeid=ChIJI4xsYEUIdkgRZZftgaVBiMY",
     "isVisible": true,
    "postcode": "SM3 9DL"
  },
  {
    "name": "Dental Beauty Bow",
    "address": "560 Roman Rd, Bow, London E3 5ES, United Kingdom",
    "phone": "+44 20 8980 3133",
    "status": "Open ⋅ Closes 6 PM",
    "rating": "4.8",
    "reviews": 622,
    "website": "http://www.dentalbeautybow.co.uk/",
    "latitude": "51.5328745",
    "longitude": "-0.030023",
    "placeId": "ChIJ5YbXLzwddkgRK7murmvC4dk",
    "reviewsUrl": "https://search.google.com/local/reviews?placeid=ChIJ5YbXLzwddkgRK7murmvC4dk",
     "isVisible": true,
    "postcode": "E3 5ES"
  },
  {
    "name": "Goldhawk Dental Centre - Relocated next door Dental W12",
    "address": "96 Goldhawk Rd, London W12 8HD, United Kingdom",
    "phone": "+44 20 8743 8282",
    "status": "Temporarily closed",
    "rating": "3.4",
    "reviews": 27,
    "website": "https://dentalw12.co.uk/",
    "latitude": "51.5021004",
    "longitude": "-0.2290616",
    "placeId": "ChIJx2Mfec4PdkgRp7DlEX3r9vA",
    "reviewsUrl": "https://search.google.com/local/reviews?placeid=ChIJx2Mfec4PdkgRp7DlEX3r9vA",
     "isVisible": true,
    "postcode": "W12 8HD"
  },
  {
    "name": "Dental & Medical Clinic in Barking",
    "address": "98 Longbridge Rd, Barking IG11 8SF, United Kingdom",
    "phone": "+44 20 7998 3252",
    "status": "Open ⋅ Closes 7 PM",
    "rating": "3.6",
    "reviews": 622,
    "website": "http://www.klinika.co.uk/",
    "latitude": "51.5416188",
    "longitude": "0.0849366",
    "placeId": "ChIJ7aXog3Gm2EcR2hqMc8ztlqA",
    "reviewsUrl": "https://search.google.com/local/reviews?placeid=ChIJ7aXog3Gm2EcR2hqMc8ztlqA",
     "isVisible": true,
    "postcode": "IG11 8SF"
  },
  {
    "name": "South Ealing Dental Practice",
    "address": "81 S Ealing Rd, London W5 4QR, United Kingdom",
    "phone": "+44 20 8914 8226",
    "status": "Open ⋅ Closes 9 PM",
    "rating": "4.8",
    "reviews": 610,
    "website": "http://www.dentistsouthealing.com/",
    "latitude": "51.5006325",
    "longitude": "-0.3062352",
    "placeId": "ChIJgdcaMZMNdkgRylAKQkWzEw8",
    "reviewsUrl": "https://search.google.com/local/reviews?placeid=ChIJgdcaMZMNdkgRylAKQkWzEw8",
     "isVisible": true,
    "postcode": "W5 4QR"
  },
  {
    "name": "NHS Dentist",
    "address": "355 North End Rd, London SW6 1NW, United Kingdom",
    "phone": "+44 20 7610 1110",
    "status": "Open ⋅ Closes 8 PM",
    "rating": "4.5",
    "reviews": 602,
    "website": "http://www.nhsdentist.com/",
    "latitude": "51.4843844",
    "longitude": "-0.2015011",
    "placeId": "ChIJjRY5bJAPdkgRx2UVTb4pMTI",
    "reviewsUrl": "https://search.google.com/local/reviews?placeid=ChIJjRY5bJAPdkgRx2UVTb4pMTI",
     "isVisible": true,
    "postcode": "SW6 1NW"
  },
  {
    "name": "Green Dental Care - NHS Dentist Battersea",
    "address": "2-4 York Rd, London SW11 3QA, United Kingdom",
    "phone": "+44 20 7228 6364",
    "status": "Open ⋅ Closes 5 PM",
    "rating": "4.5",
    "reviews": 588,
    "website": "http://greendentalcare.co.uk/",
    "latitude": "51.470163",
    "longitude": "-0.1721706",
    "placeId": "ChIJafzJM5wFdkgRY9hBOeMzIuU",
    "reviewsUrl": "https://search.google.com/local/reviews?placeid=ChIJafzJM5wFdkgRY9hBOeMzIuU",
     "isVisible": true,
    "postcode": "SW11 3QA"
  },
  {
    "name": "Dental Smiles London Chalton Street",
    "address": "30-32 Chalton St, London NW1 1JB, United Kingdom",
    "phone": "+44 20 3757 5272",
    "status": "Open ⋅ Closes 6 PM",
    "rating": "4.8",
    "reviews": 588,
    "website": "https://www.dentalsmileslondon.co.uk/find-us/euston",
    "latitude": "51.5291921",
    "longitude": "-0.1295383",
    "placeId": "ChIJy3QEtiQbdkgRYw6oHQUMnBo",
    "reviewsUrl": "https://search.google.com/local/reviews?placeid=ChIJy3QEtiQbdkgRYw6oHQUMnBo",
     "isVisible": true,
    "postcode": "NW1 1JB"
  },
  {
    "name": "Mint Dental Centre",
    "address": "41 Clapham Rd, London SW9 0JD, United Kingdom",
    "phone": "+44 20 7587 0100",
    "status": "Open ⋅ Closes 5:30 PM",
    "rating": "4.3",
    "reviews": 587,
    "website": "https://mintdentalcentre.com/",
    "latitude": "51.479717",
    "longitude": "-0.1143533",
    "placeId": "ChIJ7_WF9YwEdkgR93_63S00NPE",
    "reviewsUrl": "https://search.google.com/local/reviews?placeid=ChIJ7_WF9YwEdkgR93_63S00NPE",
     "isVisible": true,
    "postcode": "SW9 0JD"
  },
  {
    "name": "Whitestar Dental Care",
    "address": "The Exchange Mall, Unit SU3/4, The Lower Level, Ilford IG1 1AR, United Kingdom",
    "phone": "+44 20 8477 0920",
    "status": "Open ⋅ Closes 7 PM",
    "rating": "4.3",
    "reviews": 584,
    "website": "https://www.whitestardentalcare.co.uk/",
    "latitude": "51.5595474",
    "longitude": "0.0709263",
    "placeId": "ChIJ_7BSIIum2EcRKzHpgr-9Dpk",
    "reviewsUrl": "https://search.google.com/local/reviews?placeid=ChIJ_7BSIIum2EcRKzHpgr-9Dpk",
     "isVisible": true,
    "postcode": "IG1 1AR"
  },
  {
    "name": "Harrow Weald Dental Practice",
    "address": "359 High Rd, Harrow HA3 5EQ, United Kingdom",
    "phone": "+44 20 8427 8120",
    "status": "Open ⋅ Closes 5 PM",
    "rating": "4.9",
    "reviews": 570,
    "website": "http://www.harrowwealddental.co.uk/",
    "latitude": "51.6041443",
    "longitude": "-0.3400151",
    "placeId": "ChIJBak8foMUdkgRQkRkAPsJ5rs",
    "reviewsUrl": "https://search.google.com/local/reviews?placeid=ChIJBak8foMUdkgRQkRkAPsJ5rs",
     "isVisible": true,
    "postcode": "HA3 5EQ"
  },
  {
    "name": "Alexandra Park Dental Practice",
    "address": "263 Victoria Rd, London N22 7XH, United Kingdom",
    "phone": "+44 20 8829 8555",
    "status": "Open ⋅ Closes 5 PM",
    "rating": "4.5",
    "reviews": 568,
    "website": "http://www.alexandraparkdentist.co.uk/",
    "latitude": "51.5996418",
    "longitude": "-0.1353736",
    "placeId": "ChIJoXKpg30ZdkgRMtzkXkU7aYo",
    "reviewsUrl": "https://search.google.com/local/reviews?placeid=ChIJoXKpg30ZdkgRMtzkXkU7aYo",
     "isVisible": true,
    "postcode": "N22 7XH"
  },
  {
    "name": "Wimpole Dental",
    "address": "22 Camden High St, London NW1 0JH, United Kingdom",
    "phone": "+44 20 7380 1025",
    "status": "",
    "rating": "",
    "reviews": 0,
    "website": "",
    "latitude": "51.5353432",
    "longitude": "-0.1388339",
    "placeId": "ChIJ__9WJSAbdkgRdpphRajrrTA",
    "reviewsUrl": "https://search.google.com/local/reviews?placeid=ChIJ__9WJSAbdkgRdpphRajrrTA",
     "isVisible": true,
    "postcode": "NW1 0JH"
  },
  {
    "name": "Abbey Dental Walthamstow",
    "address": "25 St James St, London E17 7PJ, United Kingdom",
    "phone": "+44 20 8521 2816",
    "status": "Open ⋅ Closes 6 PM",
    "rating": "4.3",
    "reviews": 548,
    "website": "https://www.abbeydentalwalthamstow.co.uk/",
    "latitude": "51.5807873",
    "longitude": "-0.0328641",
    "placeId": "ChIJaXVTU8YddkgRSqDmXR9XK6A",
    "reviewsUrl": "https://search.google.com/local/reviews?placeid=ChIJaXVTU8YddkgRSqDmXR9XK6A",
     "isVisible": true,
    "postcode": "E17 7PJ"
  },
  {
    "name": "Manor Park Dental Practice",
    "address": "620 Romford Rd, London E12 5AQ, United Kingdom",
    "phone": "+44 20 8478 1431",
    "status": "Open ⋅ Closes 4:30 PM",
    "rating": "4.7",
    "reviews": 541,
    "website": "http://manorpark-dental.co.uk/?utm_source=gbm&utm_medium=post&utm_campaign=mainlink",
    "latitude": "51.5507423",
    "longitude": "0.0478854",
    "placeId": "ChIJX0d_aVOm2EcRGZOBNzSaXIg",
    "reviewsUrl": "https://search.google.com/local/reviews?placeid=ChIJX0d_aVOm2EcRGZOBNzSaXIg",
     "isVisible": true,
    "postcode": "E12 5AQ"
  }
]